Publication,Year,Continent,Site Name,Longitude,Latitude,Start,End,Study
Truc_etal_2013,2013,Africa,Wonderkrater Borehole 3,28.74,-24.43,0,20000,Quantitative
CC15,2015,Africa,Blydefontein,25.08,-31.15,0,12000,Quantitative
CC15,2015,Africa,Braamhoek,29.58,-28.23,0,15500,Quantitative
CC15,2015,Africa,Equus Cave,24.61,-27.61,0,33000,Quantitative
CC15,2015,Africa,Lake Eteza,32.15,-28.52,0,10500,Quantitative
CC15,2015,Africa,Florisbad,26.07,-28.77,1600,8000,Quantitative
CC15,2015,Africa,Mahwaqa,29.72,-29.8,0,18000,Quantitative
CC15,2015,Africa,Mfabeni,32.51,-28.15,0,44000,Quantitative
CC15,2015,Africa,Rietvlei Dam,29.33,-25.83,1700,12000,Quantitative
CC15,2015,Africa,Tate Vondo,30.33,-22.9,500,20000,Quantitative
CC15,2015,Africa,Tswaing Crater 1,28.03,-25.42,0,8000,Quantitative
CC15,2015,Africa,Tswaing Crater 2,28.03,-25.42,1700,10500,Quantitative
CC15,2015,Africa,Wonderkrater Borehole 3,28.74,-24.43,0,20000,Quantitative
CC15,2015,Africa,Wonderkrater Borehole 4,28.74,-24.43,10000,42000,Quantitative
CC16,2016,Africa,Blydefontein,25.08,-31.15,0,12000,Quantitative
CC16,2016,Africa,Braamhoek,29.58,-28.23,0,15500,Quantitative
CC16,2016,Africa,Equus Cave,24.61,-27.61,0,33000,Quantitative
CC16,2016,Africa,Lake Eteza,32.15,-28.52,0,10500,Quantitative
CC16,2016,Africa,Florisbad,26.07,-28.77,1600,8000,Quantitative
CC16,2016,Africa,Mahwaqa,29.72,-29.8,0,18000,Quantitative
CC16,2016,Africa,Mfabeni,32.51,-28.15,0,44000,Quantitative
CC16,2016,Africa,Rietvlei Dam,29.33,-25.83,1700,12000,Quantitative
CC16,2016,Africa,Tate Vondo,30.33,-22.9,500,20000,Quantitative
CC16,2016,Africa,Tswaing Crater 1,28.03,-25.42,0,8000,Quantitative
CC16,2016,Africa,Tswaing Crater 2,28.03,-25.42,1700,10500,Quantitative
CC16,2016,Africa,Wonderkrater Borehole 3,28.74,-24.43,0,20000,Quantitative
CC16,2016,Africa,Wonderkrater Borehole 4,28.74,-24.43,10000,42000,Quantitative
Chase_etal_2015a,2015,Africa,De Rif,19.22083333,-32.44583333,500,15500,Quantitative
Chase_etal_2015b,2015,Africa,Katbakkies,19.561,-32.896,500,6800,Quantitative
Lim_etal_2016,2016,Africa,Pella,19.135,-29.00111111,0,50000,Quantitative
Cordova_etal_2017,2017,Africa,Lake Ngami,22.76083333,-20.48028333,0,16500,Quantitative
Chevalier_etal_2021,2021,Africa,MD96-2048,34.0167,-26.1667,0,790000,Quantitative
Chevalier_2019,2019,Asia,Lake Van,42.8,38.6,10200,133900,Quantitative
Hui_etal_2021,2021,Asia,Yanwan,105.5666667,34.96666667,6100000,17100000,Quantitative
Yi_etal_2020,2020,Asia,GG19-2-1,128.1608333,36.51277778,0,1300,Quantitative
Quick_etal_2021,2021,Africa,Pearly Beach,19.50833333,-34.87777778,0,25300,Qualitative
Romero_etal_2021,2021,Europe,Handlova,18.68,48.68,11500000,20500000,Quantitative
Romero_etal_2021,2021,Asia,Mae Moh,99.5,18.5,11500000,20500000,Quantitative
Gibson_etal_2022,2022,Europe,Trwyn y Parc solution pipe fill,-4.35,53.25,1380000,16000000,Quantitative
Gibson_etal_2022,2022,Europe,"Brassington Formation, Kenslow Member 1, ",-1.7,53,7300000,11600000,Quantitative
Gibson_etal_2022,2022,Europe,"Coralline Crag Formation, Ramsholt Member",1.6,52.2,3700000,4500000,Quantitative
Gibson_etal_2022,2022,Europe,Red Crag Formation,1.4,51.8,2600000,3000000,Quantitative
Hui_etal_2023,2023,Asia,Tianshui Basin (YD section),105.9166667,34.63333333,6300000,10800000,Quantitative
Hui_etal_2023b,2023,Asia,Nanyu,104.9,37.7,13600000,15970000,Quantitative
Okeefe_2024,2024,N. America,Bouie River,-89.31,31.35,11600000,17000000,Quantitative
Okeefe_2024,2024,N. America,Alum Bluff,-84.986,30.469,15000000,40000000,Quantitative
Okeefe_2024,2024,N. America,Clarkia (All),-116.269,46.998,15140000,82000000,Quantitative
Okeefe_2024,2024,N. America,Clarkia (Megafossils),-116.269,46.998,15140000,64000000,Quantitative
Okeefe_2024,2024,N. America,Clarkia (Pollen),-116.269,46.998,15140000,37000000,Quantitative
Okeefe_2024,2024,N. America,Trapper Creek,-114.079,42.134,12690000,16000000,Quantitative
Pilie,2023,Antarctica,McMurdo Sound,165.2768833,-77.75813333,15600000,16400000,Quantitative
McCoy_2024,2024,Europe,Washing Bay,-6.60,54.54,23000000,33900000,Quantitative
McCoy_2024,2024,Europe,Bovey,-3.92,50.57,27820000,33900000,Quantitative
McCoy_2024,2024,Europe,Ballynakilly,-9.96,53.56,23000000,33900000,Quantitative
McCoy_2024,2024,Europe,Bellbrook,-6.25,54.61,23000000,33900000,Quantitative
McCoy_2024,2024,Europe,Mire House,-6.75,54.55,23000000,33900000,Quantitative
McCoy_2024,2024,Europe,Petrockstowe,-4.13,51.00,23000000,33900000,Quantitative
McCoy_2024,2024,Europe,Little Minch (80/14) ALL,-5.97,58.06,25500000,31800000,Quantitative
McCoy_2024,2024,Europe,St. Agnes Beacon,-5.23,50.31,27820000,33900000,Quantitative
McCoy_2024,2024,Europe,73/35,-4.59,51.19,23030000,27820000,Quantitative
McCoy_2024,2024,Europe,73/58,-4.41,51.19,23030000,27820000,Quantitative
McCoy_2024,2024,Europe,Ballygiblin,-8.52,52.22,23000000,33900000,Quantitative
McCoy_2024,2024,Europe,Ballymacadam,-9.43,52.24,23000000,33900000,Quantitative
McCoy_2024,2024,Europe,16/16B-A,1.23,58.80,26300000,32100000,Quantitative
McCoy_2024,2024,Europe,21/28-A,-3.10,57.82,26600000,33000000,Quantitative
McCoy_2024,2024,Europe,80/14-A,-6.92,57.77,25500000,31800000,Quantitative
McCoy_2024,2024,Europe,88/12-A,-6.99,56.84,27050000,31800000,Quantitative
McCoy_2024,2024,Europe,78/01-A,-7.32,56.74,25600000,33900000,Quantitative
McCoy_2024,2024,Europe,77/07-B,-4.61,61.51,23030000,31700000,Quantitative
McCoy_2024,2024,Europe,73/36-A,-4.65,51.25,25800000,33900000,Quantitative
McCoy_2024,2024,Europe,LNA,-6.62,54.65,25800000,31650000,Quantitative
McCoy_2024,2024,Europe,LNB,-6.62,54.65,25800000,31650000,Quantitative
McCoy_2024,2024,Europe,LNC,-6.62,54.65,25800000,31650000,Quantitative
McCoy_2024,2024,Europe,LND,-6.62,54.65,25800000,31650000,Quantitative
McCoy_2024,2024,Europe,Castlemartin,-4.99,51.61,15970000,23000000,Quantitative
McCoy_2024,2024,Europe,LN_13611,-6.58,54.99,23030000,27820000,Quantitative
McCoy_2024,2024,Europe,LN_27415,-6.55,54.68,23030000,27820000,Quantitative
McCoy_2024,2024,Europe,LN_603,-6.40,55.11,23030000,27820000,Quantitative
McCoy_2024,2024,Europe,LN_36_4680,-6.40,54.56,23030000,27820000,Quantitative
McCoy_2024,2024,Europe,Mochras (1),-4.14,52.81,23000000,33900000,Quantitative
McCoy_2024,2024,Europe,Mochras (2),-4.14,52.81,15970000,33900000,Quantitative
McCoy_2024,2024,Europe,515.42,-4.14,52.81,23000000,33900000,Quantitative
McCoy_2024,2024,Europe,408.43,-4.14,52.81,23000000,33900000,Quantitative
McCoy_2024,2024,Europe,368.8,-4.14,52.81,15970000,33900000,Quantitative
McCoy_2024,2024,Europe,368.2,-4.14,52.81,15970000,33900000,Quantitative